,City,Latitude,Longitude,Max_temp,Humidity,Cloudiness,Wind_speed,Country,Date
0,Denver,39.7392,-104.9847,52.0,21,0,1.01,US,1616095856
1,Boston,42.3584,-71.0598,46.99,87,100,5.75,US,1616095937
2,Los Angeles,34.0522,-118.2437,68.0,52,1,5.41,US,1616096055
3,Oregon,44.0001,-120.5014,55.99,39,100,13.0,US,1616096228
4,Quito,-0.2299,-78.5249,64.4,63,75,8.05,EC,1616096187
5,Kampala,0.3163,32.5822,69.8,88,20,9.22,UG,1616096230
6,Padang,-0.9492,100.3543,75.2,100,90,2.3,ID,1616096232
