,City,Latitude,Longitude,Max_temp,Humidity,Cloudiness,Wind_speed,Country,Date
0,Denver,39.7392,-104.9847,52.0,21,0,1.01,US,1616095856
1,Boston,42.3584,-71.0598,46.99,87,100,5.75,US,1616095937
2,Los Angeles,34.0522,-118.2437,68.0,52,1,5.41,US,1616096055
3,Oregon,44.0001,-120.5014,55.99,39,100,13.0,US,1616096228
4,Quito,-0.2299,-78.5249,64.4,63,75,8.05,EC,1616096187
5,Kampala,0.3163,32.5822,69.8,88,20,9.22,UG,1616096230
6,Padang,-0.9492,100.3543,75.2,100,90,2.3,ID,1616096232
7,Chui,-33.6971,-53.4616,55.71,80,6,4.81,UY,1616139822
8,Hobyo,5.3505,48.5268,86.27,61,3,14.43,SO,1616139824
9,Umm Kaddadah,13.6017,26.6876,89.91,11,4,21.77,SD,1616139719
10,Itapaci,-14.9508,-49.5494,66.92,93,100,1.97,BR,1616139826
11,Hobart,-42.8794,147.3294,69.8,49,20,11.5,AU,1616139813
12,Kapaa,22.0752,-159.319,69.8,78,90,20.71,US,1616139829
13,Flinders,-34.5833,150.8552,70.0,86,100,4.0,AU,1616139724
14,São João da Barra,-21.6403,-41.0511,74.48,88,88,11.03,BR,1616139832
15,Avarua,-21.2078,-159.775,77.0,88,40,3.44,CK,1616139833
16,San Patricio,28.017,-97.5169,57.2,54,1,11.5,US,1616139835
17,New Norfolk,-42.7826,147.0587,68.0,50,0,1.01,AU,1616139836
18,Trunovskoye,45.4878,42.1358,44.6,65,40,20.13,RU,1616139837
19,Port Alfred,-33.5906,26.891,71.26,77,99,19.17,ZA,1616139839
20,Amahai,-3.3333,128.9167,83.66,79,92,3.04,ID,1616139840
21,Ushuaia,-54.8,-68.3,44.6,70,75,6.91,AR,1616139558
22,Hilo,19.7297,-155.09,68.0,83,90,5.75,US,1616139695
23,Aranzazu,5.2712,-75.4904,56.66,94,100,1.74,CO,1616139844
24,Hirara,24.8,125.2833,77.0,78,40,10.36,JP,1616139845
25,Bétaré Oya,5.6,14.0833,82.47,59,57,2.3,CM,1616139847
26,Araouane,18.9048,-3.5265,74.41,12,0,8.77,ML,1616139770
27,Isangel,-19.55,169.2667,76.8,80,100,12.66,VU,1616139812
28,Albany,42.6001,-73.9662,28.99,34,100,4.0,US,1616139850
29,Beringovskiy,63.05,179.3167,-5.78,99,100,9.08,RU,1616139852
30,Lovozero,68.005,35.0117,16.65,90,99,7.27,RU,1616139853
31,Arraial do Cabo,-22.9661,-42.0278,75.22,88,27,16.11,BR,1616139855
32,Tuktoyaktuk,69.4541,-133.0374,-16.19,100,98,8.93,CA,1616139804
33,Shirpur,21.35,74.8833,98.78,16,21,6.53,IN,1616139857
34,Hermanus,-34.4187,19.2345,64.99,79,98,11.54,ZA,1616139709
35,Upernavik,72.7868,-56.1549,-4.0,88,79,6.11,GL,1616139863
36,Saint George,37.1041,-113.5841,55.0,58,1,5.75,US,1616139690
37,Münsingen,48.4113,9.497,36.0,89,100,1.9,DE,1616139867
38,Butaritari,3.0707,172.7902,81.73,77,0,9.8,KI,1616139868
39,Verāval,20.9,70.3667,83.98,52,0,13.22,IN,1616139869
40,Mar del Plata,-38.0023,-57.5575,54.0,85,0,3.0,AR,1616139690
41,Bathsheba,13.2167,-59.5167,75.2,64,75,14.97,BB,1616139873
42,East London,-33.0153,27.9116,71.6,68,75,18.41,ZA,1616139874
43,Stromness,58.965,-3.296,44.6,93,75,10.36,GB,1616139876
44,Punta Arenas,-53.15,-70.9167,48.2,81,0,8.05,CL,1616139877
45,Alagoinhas,-12.1356,-38.4192,69.4,97,2,1.57,BR,1616139879
46,Dwārka,22.2394,68.9678,81.1,50,0,8.61,IN,1616139880
47,Atuona,-9.8,-139.0333,80.11,81,3,12.5,PF,1616139881
48,Bredasdorp,-34.5322,20.0403,64.4,68,75,5.75,ZA,1616139883
49,Mahabalipuram,12.6264,80.1722,87.8,55,40,8.05,IN,1616139884
50,Puerto Ayora,-0.7393,-90.3518,75.99,95,99,4.47,EC,1616139886
51,Babušnica,43.0597,22.4117,37.99,100,5,4.61,RS,1616139887
52,Ponta do Sol,32.6667,-17.1,59.0,30,0,3.0,PT,1616139888
53,Ostrovnoy,68.0531,39.5131,11.03,83,9,4.74,RU,1616139890
54,Kaitangata,-46.2817,169.8464,57.99,63,60,4.0,NZ,1616139786
55,Aykhal,66.0,111.5,-4.0,91,81,5.93,RU,1616139892
56,Rikitea,-23.1203,-134.9692,80.04,78,100,17.56,PF,1616139894
57,Baikunthpur,23.25,82.55,93.52,16,99,9.01,IN,1616139895
58,Umluj,25.0213,37.2685,77.81,47,0,13.73,SA,1616139897
59,Fortuna,40.5982,-124.1573,45.0,100,75,6.89,US,1616139778
60,Rome,43.2128,-75.4557,28.4,40,1,9.22,US,1616139746
61,Busselton,-33.65,115.3333,91.99,24,98,1.99,AU,1616139900
62,Maniitsoq,65.4167,-52.9,20.01,88,100,19.1,GL,1616139656
63,Dikson,73.5069,80.5464,-27.81,92,0,9.71,RU,1616139904
64,Oyama,36.3,139.8,60.01,47,75,12.66,JP,1616139905
65,Anloga,5.7947,0.8973,77.0,83,20,5.75,GH,1616139907
66,Leningradskiy,69.3833,178.4167,-20.88,88,0,1.43,RU,1616139717
67,Ribeira Grande,38.5167,-28.7,60.8,88,75,18.41,PT,1616139909
68,Ternate,0.8,127.4,83.44,74,100,7.45,ID,1616139911
69,Jamestown,42.097,-79.2353,28.0,50,1,16.35,US,1616139912
70,Barrow,71.2906,-156.7887,-2.2,71,75,6.91,US,1616139914
71,Lebu,-37.6167,-73.65,52.05,89,0,3.56,CL,1616139619
72,Saint-Joseph,-21.3667,55.6167,84.99,70,20,26.46,RE,1616139916
73,Vaini,-21.2,-175.2,78.8,89,20,3.44,TO,1616139689
74,Pouso Alegre,-22.23,-45.9364,66.0,93,86,1.5,BR,1616139919
75,Ahipara,-35.1667,173.1667,61.59,71,16,8.97,NZ,1616139920
76,Sobolevo,54.4299,31.8996,29.23,81,81,5.88,RU,1616139922
77,Cape Town,-33.9258,18.4232,66.2,59,20,20.71,ZA,1616139684
78,Yar-Sale,66.8333,70.8333,-6.9,94,53,11.5,RU,1616139924
79,Saskylakh,71.9167,114.0833,-19.07,91,100,12.64,RU,1616139928
80,Leeds,53.7964,-1.5477,45.0,49,100,3.0,GB,1616139758
81,Svetlyy Yar,48.4748,44.781,35.6,80,20,15.66,RU,1616139931
82,Paamiut,61.994,-49.6678,22.19,69,100,17.27,GL,1616139932
83,Nikolskoye,59.7035,30.7861,21.99,73,75,8.95,RU,1616139933
84,Opunake,-39.4556,173.8583,57.0,61,0,8.99,NZ,1616139935
85,Condado,21.8767,-79.8403,69.8,100,1,3.44,CU,1616139936
86,Tasiilaq,65.6145,-37.6368,30.2,74,20,10.36,GL,1616139938
87,Westport,41.1415,-73.3579,39.2,70,90,19.57,US,1616139939
88,Avera,33.194,-82.5271,51.8,71,40,13.8,US,1616139940
89,Mataura,-46.1927,168.8643,55.0,82,34,5.99,NZ,1616139942
90,Merauke,-8.4667,140.3333,82.53,78,100,5.44,ID,1616139943
91,Yellowknife,62.456,-114.3525,12.2,85,1,5.75,CA,1616139945
92,Nokaneng,-19.6667,22.2667,71.8,69,99,5.12,BW,1616139946
93,Carauari,-4.8828,-66.8958,71.83,97,100,2.06,BR,1616139947
94,Sitka,57.0531,-135.33,33.8,69,75,5.75,US,1616139949
95,Saint-Philippe,-21.3585,55.7679,84.99,70,20,26.46,RE,1616139804
96,Provideniya,64.3833,-173.3,-8.81,94,0,7.9,RU,1616139953
97,Torbay,47.6666,-52.7314,37.0,93,90,27.63,CA,1616139955
98,Kyra,49.5776,111.9753,26.92,55,43,11.03,RU,1616139957
99,Esperance,-33.8667,121.9,86.0,37,0,14.97,AU,1616139958
100,Mikuni,36.2171,136.1519,53.6,62,20,16.11,JP,1616139959
101,Den Helder,52.9599,4.7593,42.01,81,0,10.36,NL,1616139693
102,Mount Gambier,-37.8333,140.7667,75.2,57,0,14.97,AU,1616139866
103,Kalemie,-5.9475,29.1947,77.7,74,13,3.71,CD,1616139964
104,Cortez,37.3489,-108.5859,39.2,65,90,4.43,US,1616139966
105,Mazyr,52.0495,29.2456,33.21,76,100,4.56,BY,1616139967
106,Waddān,29.1614,16.139,70.43,25,3,24.43,LY,1616139968
107,Airai,-8.9266,125.4092,67.78,87,100,1.59,TL,1616139970
108,George Town,5.4112,100.3354,91.4,51,20,11.5,MY,1616139971
109,Halifax,44.6453,-63.5724,33.8,93,100,6.91,CA,1616139973
110,Taltal,-25.4,-70.4833,63.82,88,94,1.61,CL,1616139975
111,Gamboula,4.1178,15.1393,81.61,60,73,2.95,CF,1616139977
112,Ugoofaaru,5.6667,73.0,83.44,64,59,7.54,MV,1616139978
113,Matadi,-5.8167,13.45,82.35,80,100,1.72,CD,1616139979
114,Vostok,46.4856,135.8833,26.64,91,100,4.63,RU,1616139981
115,Cabo San Lucas,22.8909,-109.9124,60.01,58,0,4.7,MX,1616139982
116,Campos Altos,-19.6961,-46.1714,62.38,93,86,2.55,BR,1616139984
117,Nizwá,22.9333,57.5333,95.02,9,0,3.65,OM,1616139986
118,Zhigansk,66.7697,123.3711,20.37,81,100,11.63,RU,1616139988
119,Hithadhoo,-0.6,73.0833,82.65,72,95,12.46,MV,1616139989
120,Rincon,32.296,-81.2354,60.8,59,1,14.97,US,1616139990
121,Vila Franca do Campo,37.7167,-25.4333,57.2,82,40,5.75,PT,1616139992
122,Vestmannaeyjar,63.4427,-20.2734,46.6,93,100,21.21,IS,1616139993
123,Tual,-5.6667,132.75,84.38,67,93,7.27,ID,1616139995
124,Olavarría,-36.8927,-60.3225,52.0,78,39,4.14,AR,1616139780
125,Teeli,51.0333,90.2333,29.43,35,0,5.86,RU,1616139997
126,Badiraguato,25.3667,-107.5167,53.01,86,0,4.0,MX,1616139999
127,Luangwa,-15.6167,30.4167,81.03,70,33,5.46,ZM,1616140000
128,Los Llanos de Aridane,28.6585,-17.9182,62.6,39,20,8.05,ES,1616140001
129,Punta Alta,-38.8759,-62.0736,54.95,55,0,9.84,AR,1616140003
130,Asău,46.4333,26.4,33.01,64,100,3.27,RO,1616140004
131,Bambous Virieux,-20.3428,57.7575,84.2,70,40,10.36,MU,1616140006
132,Khatanga,71.9667,102.5,-15.92,93,100,9.01,RU,1616140007
133,Oudtshoorn,-33.5907,22.2014,66.2,77,20,8.05,ZA,1616140010
134,Qasigiannguit,68.8193,-51.1922,15.8,53,20,19.57,GL,1616140011
135,Marsá Maţrūḩ,31.3525,27.2453,60.8,59,0,11.5,EG,1616140014
136,Omboué,-1.5746,9.2618,78.53,83,94,4.14,GA,1616140015
137,Broome,42.2506,-75.833,28.0,50,1,16.11,US,1616140016
138,Kuršumlija,43.1458,21.2686,36.0,87,75,1.14,RS,1616140018
139,Pisco,-13.7,-76.2167,68.0,83,0,3.44,PE,1616140019
140,Tiksi,71.6872,128.8694,-2.04,99,100,6.76,RU,1616140021
141,Alofi,-19.0595,-169.9187,78.8,89,100,4.61,NU,1616140022
142,Longyearbyen,78.2186,15.6401,30.2,86,90,9.22,SJ,1616139828
143,Inndyr,67.0338,14.0276,25.0,93,90,21.85,NO,1616140025
144,Beloha,-25.1667,45.05,93.56,36,0,5.03,MG,1616140026
145,Nouadhibou,20.931,-17.0347,61.79,72,0,22.64,MR,1616140027
146,Dingle,10.9995,122.6711,87.22,64,23,9.89,PH,1616139892
147,Fairbanks,64.8378,-147.7164,6.8,78,90,2.55,US,1616140030
148,Corinth,37.9407,22.9573,53.01,62,60,3.0,GR,1616140031
149,Mandurah,-32.55,115.7,82.99,57,100,8.99,AU,1616140033
150,Fes,34.0372,-4.9998,51.8,93,75,3.44,MA,1616140034
151,Joshīmath,30.5667,79.5667,66.42,32,100,7.11,IN,1616140036
152,Raton,36.9034,-104.4391,33.8,75,1,3.44,US,1616140037
153,Buchanan,5.8808,-10.0467,73.4,94,75,4.61,LR,1616140038
155,Puerto Carreño,6.189,-67.4859,77.47,64,30,10.63,CO,1616140041
156,Zastron,-30.3023,27.084,74.14,26,0,12.26,ZA,1616140043
157,Qaanaaq,77.484,-69.3632,-10.21,81,100,6.4,GL,1616140044
158,Barinas,8.6226,-70.2075,78.8,73,97,3.44,VE,1616140045
159,Mangit,40.5971,70.9607,60.8,31,100,2.3,UZ,1616140048
160,Lompoc,34.6391,-120.4579,55.4,76,75,4.27,US,1616140049
161,Zhezkazgan,47.8043,67.7144,33.13,69,100,20.56,KZ,1616140051
162,Mahébourg,-20.4081,57.7,84.2,70,40,10.36,MU,1616139997
163,Half Moon Bay,37.4636,-122.4286,53.6,93,90,8.05,US,1616140053
164,Berlevåg,70.8578,29.0864,19.4,86,100,25.32,NO,1616140055
165,Bengkulu,-3.8004,102.2655,83.43,71,85,6.98,ID,1616140056
166,Progreso,21.2833,-89.6667,75.99,83,75,5.75,MX,1616140058
167,Ouadda,8.0777,22.4007,87.28,49,94,3.36,CF,1616140059
168,Houma,29.5958,-90.7195,54.0,71,1,6.91,US,1616139795
169,Lagoa,39.05,-27.9833,58.44,82,100,17.07,PT,1616140062
170,Ust-Kuyga,70.0167,135.6,0.97,88,100,12.62,RU,1616140063
171,Faanui,-16.4833,-151.75,82.38,66,2,5.3,PF,1616140064
172,Mount Isa,-20.7333,139.5,95.0,24,69,6.91,AU,1616139940
173,Hamilton,39.1834,-84.5333,39.0,70,90,23.02,US,1616139772
174,Codrington,-38.2667,141.9667,66.94,77,0,15.19,AU,1616140068
175,Thompson,55.7435,-97.8558,32.0,59,1,4.61,CA,1616140070
176,Venado Tuerto,-33.7456,-61.9688,55.0,60,100,4.0,AR,1616140071
177,Tessalit,20.1986,1.0114,74.53,14,0,8.68,ML,1616140073
178,Nicoya,10.1483,-85.452,73.27,89,100,2.37,CR,1616139914
179,Ayan,56.45,138.1667,20.41,62,0,10.58,RU,1616140075
180,Bam,29.106,58.357,87.91,12,98,15.08,IR,1616139911
181,Deputatsky,69.3,139.9,-18.38,96,100,4.38,RU,1616140078
182,Pindiga,9.9833,10.9333,84.36,52,75,12.3,NG,1616140079
183,Egvekinot,66.3167,-179.1667,-15.38,71,0,5.3,RU,1616139851
184,Coquimbo,-29.9533,-71.3436,57.2,77,75,2.3,CL,1616140082
185,Dakar,14.6937,-17.4441,66.2,94,40,9.22,SN,1616139924
186,Caluquembe,-13.7833,14.6833,67.96,75,70,3.33,AO,1616140084
187,Kloulklubed,7.0419,134.2556,86.0,70,75,10.36,PW,1616140087
188,Tabou,4.423,-7.3528,78.13,80,88,0.76,CI,1616140088
189,Bluff,-46.6,168.3333,55.0,82,45,5.99,NZ,1616140090
190,Santo Antônio do Içá,-3.1022,-67.9397,73.49,98,100,1.28,BR,1616140091
191,Hong Kong,22.2855,114.1577,82.4,54,40,6.91,HK,1616140037
192,Bayevo,53.2833,80.7667,24.51,86,97,10.04,RU,1616140094
193,Cooma,-36.2333,149.1333,57.2,100,75,9.22,AU,1616140095
194,Faya,18.3851,42.4509,73.4,21,0,8.05,SA,1616140098
195,Cidreira,-30.1811,-50.2056,69.4,79,47,6.87,BR,1616140099
196,Vryburg,-26.9566,24.7284,82.67,23,0,8.28,ZA,1616140100
197,Urucará,-2.5364,-57.76,70.77,99,100,1.21,BR,1616140102
198,Husavik,66.0449,-17.3389,50.0,62,75,16.11,IS,1616140103
199,Utrera,37.1852,-5.7809,48.99,75,20,8.05,ES,1616140105
200,Boueni,-12.9025,45.0761,87.8,74,0,4.61,YT,1616140106
201,Pryazha,61.6926,33.6216,17.6,73,75,8.95,RU,1616140107
202,Sirari,-1.2333,34.4333,79.0,46,95,6.73,TZ,1616140109
203,Sabha,27.0377,14.4283,80.13,14,0,12.28,LY,1616140110
204,Saint-Pierre,-21.3393,55.4781,84.99,70,20,26.46,RE,1616140112
205,Vorobyevka,50.6451,40.9245,30.34,85,100,8.25,RU,1616140113
206,San Quintín,30.4833,-115.95,55.33,88,0,7.65,MX,1616140068
207,Knyaze-Volkonskoye,48.4642,135.4567,33.8,60,40,4.47,RU,1616140117
208,Souillac,-20.5167,57.5167,84.2,70,40,10.36,MU,1616140118
209,Necochea,-38.5473,-58.7368,48.0,92,0,7.0,AR,1616140107
210,Cockburn Town,21.4612,-71.1419,74.84,77,19,16.51,TC,1616139903
211,Pala,9.3642,14.9046,89.1,37,71,5.48,TD,1616140123
212,Makar'yev,57.8797,43.8069,29.1,95,83,4.85,RU,1616140125
213,Severo-Kuril'sk,50.6789,156.125,30.69,95,95,11.48,RU,1616140126
214,Orbetello,42.4408,11.2196,39.99,87,0,2.3,IT,1616140127
215,Macusani,-14.0833,-70.4333,36.05,96,100,3.13,PE,1616140129
216,São Filipe,14.8961,-24.4956,70.86,75,11,7.38,CV,1616140130
217,Whitehorse,60.7161,-135.0538,12.2,62,20,10.36,CA,1616140132
218,Karasjok,69.4719,25.5112,21.2,68,100,32.21,NO,1616140133
219,Ajdabiya,30.7554,20.2263,69.8,26,94,21.41,LY,1616140129
220,Hasaki,35.7333,140.8333,59.0,62,40,11.5,JP,1616140136
221,Saint-François,46.4154,3.9054,35.01,100,90,6.91,FR,1616140137
222,Srednekolymsk,67.45,153.6833,-23.93,97,16,3.78,RU,1616140138
223,Coffs Harbour,-30.3,153.1333,70.0,83,90,10.36,AU,1616140090
224,Oltu,40.5498,42.0013,38.19,51,5,8.16,TR,1616140141
225,Gizo Government Station,-8.103,156.8419,83.66,68,76,3.58,SB,1616140142
226,Aktau,43.65,51.2,42.8,75,75,15.66,KZ,1616140144
227,Borogontsy,62.6683,131.1683,12.47,93,100,7.65,RU,1616140145
228,Aksarka,66.5606,67.7975,-7.08,95,95,14.9,RU,1616140147
229,Mahibadhoo,3.7833,72.9667,83.23,71,43,9.22,MV,1616140148
230,Haines Junction,60.7522,-137.5108,14.0,67,100,9.22,CA,1616140149
231,San-Pédro,4.7485,-6.6363,77.2,83,100,1.79,CI,1616140151
232,Geraldton,-28.7667,114.6,96.8,13,3,20.71,AU,1616140152
233,Iberia,29.9502,-91.7507,53.6,66,90,9.22,US,1616140155
234,Batagay-Alyta,67.8006,130.4114,-0.44,84,100,1.68,RU,1616140156
235,Kitimat,54.0524,-128.6534,35.01,96,99,2.26,CA,1616140114
236,Yol,32.1667,76.2,82.72,19,99,8.01,IN,1616140161
237,Vila,42.0304,-8.1588,42.01,75,83,14.0,PT,1616140163
238,Saint Paul Harbor,57.79,-152.4072,19.4,49,1,10.36,US,1616140164
239,Gaza,31.5,34.4667,66.0,53,45,1.01,PS,1616140060
240,Klaksvík,62.2266,-6.589,44.6,100,75,12.66,FO,1616140167
241,Pedro Carbo,-1.8333,-80.2333,78.01,78,100,1.25,EC,1616140168
242,Lüderitz,-26.6481,15.1594,70.7,49,12,18.19,NA,1616140170
243,Puerto Madryn,-42.7692,-65.0385,64.0,46,2,18.45,AR,1616140171
244,Ancud,-41.8697,-73.8203,48.99,100,0,3.44,CL,1616140172
245,Ishikawa,26.4233,127.8214,77.0,73,90,8.05,JP,1616140174
246,Wronki,52.7105,16.3804,33.01,93,0,4.61,PL,1616140175
247,Hearst,49.6835,-83.6665,19.4,45,0,3.44,CA,1616140177
248,Grand-Santi,4.25,-54.3833,66.42,99,28,1.32,GF,1616140178
249,Deer Lake,49.1667,-57.4316,35.6,87,90,8.05,CA,1616140179
250,Kalmunai,7.4167,81.8167,78.87,81,100,8.1,LK,1616140181
251,Laguna Verde,15.2,-88.1667,75.0,83,50,1.01,HN,1616140183
252,Malmyzh,56.5205,50.6818,28.11,96,89,7.7,RU,1616140185
253,Tautira,-17.7333,-149.15,82.0,74,40,4.61,PF,1616140186
254,Port Elizabeth,-33.918,25.5701,71.6,73,20,23.02,ZA,1616140188
255,Semey,50.4111,80.2275,21.2,73,0,17.9,KZ,1616140189
256,Dem'yanovo,60.3511,47.0842,28.63,90,91,6.02,RU,1616140190
257,Sisimiut,66.9395,-53.6735,15.96,90,100,18.75,GL,1616140192
258,Vanavara,60.34,102.2797,23.9,85,100,11.63,RU,1616140193
259,College,64.8569,-147.8028,6.8,78,90,2.26,US,1616140195
260,Touros,-5.1989,-35.4608,73.4,94,40,2.3,BR,1616140196
261,Yambio,4.5721,28.3955,88.65,42,50,5.64,SS,1616140197
262,Minsk,53.9,27.5667,32.0,69,75,4.47,BY,1616140060
263,Khani,41.9563,42.9566,44.6,87,90,17.27,GE,1616140200
264,Corsicana,32.0954,-96.4689,46.4,66,1,3.44,US,1616140201
265,Nemuro,43.3236,145.575,32.0,59,75,11.5,JP,1616140203
266,Piaçabuçu,-10.4056,-36.4344,76.6,84,27,5.91,BR,1616140204
267,Itarema,-2.9248,-39.9167,74.88,92,50,6.55,BR,1616140206
268,Ambilobe,-13.2,49.05,88.7,65,80,2.28,MG,1616140207
269,Lerwick,60.1545,-1.1494,44.6,93,75,5.75,GB,1616140209
270,Douentza,14.9951,-2.9517,82.22,8,51,5.82,ML,1616140212
271,Katsuura,35.1333,140.3,63.0,72,75,12.66,JP,1616140025
272,Russell,32.3502,-85.1999,50.0,62,90,10.36,US,1616140215
273,Tinskoy,56.1525,96.9161,24.24,80,100,11.21,RU,1616140216
274,Bumbuna,9.05,-11.7333,73.47,70,0,1.43,SL,1616140220
275,Chokurdakh,70.6333,147.9167,-24.68,79,0,8.86,RU,1616140222
276,Adré,13.4667,22.2,88.61,14,100,17.4,TD,1616140223
277,Cururupu,-1.8283,-44.8683,72.05,98,83,1.41,BR,1616140224
278,Vila Velha,-20.3297,-40.2925,71.6,94,0,4.61,BR,1616140104
279,Cherskiy,68.75,161.3,-25.58,99,0,4.09,RU,1616140227
280,El Dorado,38.7666,-120.5177,43.0,99,100,1.99,US,1616140228
281,Qaqortoq,60.7167,-46.0333,24.8,50,20,6.91,GL,1616140230
282,Mayo,38.8876,-76.5119,46.0,87,90,14.97,US,1616140231
283,Parczew,51.6402,22.9006,30.2,93,90,4.61,PL,1616140232
284,Pevek,69.7008,170.3133,-20.42,92,50,1.07,RU,1616140234
285,Brainerd,46.358,-94.2008,28.4,46,0,4.85,US,1616140235
286,South Venice,27.0531,-82.4243,71.6,88,90,9.22,US,1616140237
287,Lowestoft,52.4752,1.7516,41.0,85,2,4.0,GB,1616140238
288,Kalāleh,37.3807,55.4916,57.2,77,75,4.61,IR,1616140241
289,Devils Lake,48.1128,-98.8651,33.8,75,1,11.5,US,1616140242
290,Sinnamary,5.3833,-52.95,74.84,85,69,8.41,GF,1616140243
291,Carnarvon,-24.8667,113.6333,91.4,33,0,13.8,AU,1616140246
292,Susurluk,39.9136,28.1578,44.6,100,75,6.2,TR,1616140247
293,Taku,39.0211,117.6469,53.6,43,100,4.47,CN,1616140249
294,Ol'ga,43.7444,135.2892,41.79,43,95,1.63,RU,1616140250
295,Invermere,50.5167,-116.0354,41.0,63,15,1.01,CA,1616140252
296,Alugan,12.2188,125.4808,84.16,69,19,7.14,PH,1616140253
297,Kavieng,-2.5744,150.7967,83.77,73,90,6.96,PG,1616140254
298,Vardø,70.3705,31.1107,19.4,86,20,18.41,NO,1616140256
299,Donskoye,45.4552,41.9741,44.6,65,40,20.13,RU,1616140257
300,Fairview,40.8126,-73.999,37.4,69,90,10.36,US,1616140259
301,Jacareacanga,-6.2222,-57.7528,71.11,99,100,1.28,BR,1616140261
302,Assiut,27.181,31.1837,62.6,45,0,5.75,EG,1616140263
303,Puerto del Rosario,28.5004,-13.8627,62.6,72,20,13.8,ES,1616140264
304,Ambon City,-3.6954,128.1814,86.0,70,40,4.61,ID,1616140265
305,Kuusamo,65.9667,29.1833,3.2,85,0,10.36,FI,1616140267
306,Ouro Preto do Oeste,-10.7481,-62.2158,70.86,99,100,0.76,BR,1616140268
307,Jahānābād,25.2167,84.9833,91.4,27,40,6.91,IN,1616140270
308,Pitimbu,-7.4706,-34.8086,73.4,100,20,3.44,BR,1616140271
309,Chuguyevka,44.1653,133.8633,36.39,69,99,3.18,RU,1616140272
310,Anadyr,64.75,177.4833,-18.0,76,0,4.47,RU,1616140274
311,Glinde,53.55,10.2,35.01,93,0,5.75,DE,1616140275
312,Somerset,40.5668,-74.5496,39.2,56,90,14.97,US,1616140277
313,Otavi,-19.65,17.3333,74.95,62,76,12.5,NA,1616140278
314,Kashin,57.3592,37.6081,25.9,89,64,6.85,RU,1616140279
315,Coahuayana Viejo,18.7333,-103.6833,66.45,84,0,3.31,MX,1616140281
316,Chipinge,-20.1883,32.6236,77.22,49,0,3.71,ZW,1616140283
317,Seymchan,62.8833,152.4333,-15.07,90,51,4.09,RU,1616140285
318,Baykit,61.67,96.37,25.14,86,100,9.46,RU,1616140286
319,Narsaq,60.9167,-46.05,24.8,50,20,6.91,GL,1616140288
320,Mitsamiouli,-11.3847,43.2844,84.51,71,60,3.02,KM,1616140289
321,Kāzerūn,29.6195,51.6541,78.93,22,100,6.53,IR,1616140181
322,Saint Anthony,45.0205,-93.218,35.6,59,1,4.45,US,1616140292
323,Castro,-24.7911,-50.0119,62.31,96,84,6.85,BR,1616140293
324,Dudinka,69.4058,86.1778,-14.73,88,100,1.77,RU,1616140294
325,Edéia,-17.3383,-49.9314,67.3,93,100,3.11,BR,1616140296
326,Bartica,6.4,-58.6167,69.8,100,20,2.3,GY,1616140297
327,Mange,8.9167,-12.85,77.0,83,75,0.47,SL,1616140299
328,Äänekoski,62.6946,25.818,17.01,79,20,9.22,FI,1616140300
329,Port Pirie,-33.1833,138.0167,82.4,44,67,12.66,AU,1616140301
330,Anáhuac,27.2333,-100.15,57.87,36,0,3.02,MX,1616140303
331,Fougamou,-1.2154,10.5838,77.0,94,90,1.83,GA,1616140304
332,Atasū,48.6814,71.6433,34.54,66,15,13.47,KZ,1616140306
333,Montepuez,-13.1256,38.9997,79.09,75,45,4.61,MZ,1616140307
334,Koungheul,13.9833,-14.8,65.55,67,19,6.31,SN,1616140308
335,Mogadishu,2.0371,45.3438,86.0,62,40,12.66,SO,1616140310
336,Norman Wells,65.282,-126.8329,3.2,85,90,16.11,CA,1616140311
337,Evensk,61.95,159.2333,7.03,76,100,10.54,RU,1616140313
338,Rauma,61.1272,21.5113,19.4,68,0,9.22,FI,1616140314
339,Morondava,-20.2833,44.2833,85.37,69,28,6.44,MG,1616140315
340,Coyhaique,-45.5752,-72.0662,42.67,97,48,6.71,CL,1616140082
341,Tigzirt,36.8886,4.1198,50.99,78,100,9.6,DZ,1616140318
342,Labuhan,-6.8844,112.2051,85.23,75,8,11.56,ID,1616140321
343,Richards Bay,-28.783,32.0377,82.87,64,0,2.71,ZA,1616140322
344,Broken Hill,-31.95,141.4333,80.6,41,40,20.71,AU,1616140323
345,Kuril'sk,45.2333,147.8833,23.14,84,100,15.48,RU,1616140325
346,Matagami,49.7502,-77.6328,-5.8,92,1,3.04,CA,1616140326
347,Maraã,-1.8333,-65.3667,71.19,99,97,2.44,BR,1616140329
348,Pangnirtung,66.1451,-65.7125,-16.51,70,0,3.69,CA,1616140330
349,Panguna,-6.3164,155.4848,71.02,94,100,1.72,PG,1616140332
350,Samarinda,-0.5,117.15,83.64,82,100,4.34,ID,1616140333
351,Antsohihy,-14.8796,47.9875,88.72,65,69,2.06,MG,1616140335
352,Béboto,8.2668,16.939,78.01,61,100,7.02,TD,1616140336
353,Dzaoudzi,-12.7887,45.2699,87.8,74,0,4.61,YT,1616140337
354,Naze,28.3667,129.4833,75.2,73,75,11.5,JP,1616140339
355,Sambava,-14.2667,50.1667,84.15,66,100,9.62,MG,1616140340
356,Karakol,42.4907,78.3936,37.27,47,0,2.44,KG,1616140342
357,Vincennes,48.85,2.4333,39.99,81,40,13.8,FR,1616140343
358,Leshukonskoye,64.8989,45.7622,9.23,93,100,6.8,RU,1616140345
359,Pskov,57.8136,28.3496,26.6,50,0,15.66,RU,1616140132
360,La Rioja,-29.4111,-66.8507,62.56,79,99,3.94,AR,1616140347
361,Bambanglipuro,-7.95,110.2833,83.95,74,59,12.21,ID,1616140349
362,Sechura,-5.5569,-80.8222,75.65,73,100,9.31,PE,1616140350
363,Iwanai,42.9744,140.5089,35.35,76,98,4.81,JP,1616140351
364,Rocha,-34.4833,-54.3333,51.76,83,0,2.1,UY,1616140353
365,Hornepayne,49.2138,-84.7705,21.43,87,0,9.48,CA,1616140354
366,Teya,60.3778,92.6267,26.38,85,100,12.8,RU,1616140356
367,Belmonte,-15.8631,-38.8828,73.4,94,40,2.3,BR,1616140357
368,Mayumba,-3.432,10.6554,79.25,85,100,5.14,GA,1616140358
369,Sioux Lookout,50.1001,-91.917,32.0,40,1,5.75,CA,1616140360
370,Conceição do Araguaia,-8.2578,-49.2647,71.28,98,100,4.76,BR,1616140361
371,Dekernes,31.0876,31.595,64.4,59,0,4.61,EG,1616140363
372,Clarence Town,-32.5833,151.7833,69.8,88,90,13.8,AU,1616140286
373,Veinticinco de Mayo,-35.4323,-60.1727,48.99,62,19,1.01,AR,1616140365
374,Smithers,54.7804,-127.1743,33.8,100,40,2.3,CA,1616140368
375,Oddur,4.1213,43.8894,83.79,58,25,18.59,SO,1616140370
376,Mastic Beach,40.7668,-72.8521,34.0,100,100,8.01,US,1616140372
377,Ous,60.9058,61.5186,29.21,90,100,3.09,RU,1616140373
378,Salta,-24.7859,-65.4117,59.0,94,90,1.14,AR,1616140375
379,Muleba,-1.8397,31.6544,68.0,88,75,5.73,TZ,1616140376
380,Wagar,16.1525,36.2032,90.09,32,26,7.92,SD,1616140377
381,Tiarei,-17.5333,-149.3333,82.0,74,40,4.61,PF,1616140379
382,Greenfield,42.9614,-88.0126,35.01,74,1,8.05,US,1616140207
383,Onega,63.9061,38.1404,12.54,86,81,5.68,RU,1616140381
384,Ilulissat,69.2167,-51.1,15.8,53,20,19.57,GL,1616140383
385,Solnechnyy,50.7214,136.6319,25.66,76,100,1.9,RU,1616140384
386,Anderson,34.5334,-82.6499,50.0,66,1,12.66,US,1616140347
388,Aklavik,68.2191,-135.0107,-13.0,77,99,5.75,CA,1616140388
389,Matara,5.9485,80.5353,82.96,70,100,1.97,LK,1616140390
390,Cairns,-16.9167,145.7667,84.0,69,40,4.61,AU,1616140391
391,Fort Nelson,58.8053,-122.7002,35.6,55,75,4.61,CA,1616140392
392,Gamba,-2.65,10.0,76.51,90,100,3.76,GA,1616140394
393,Edson,53.5835,-116.4356,32.0,69,1,4.61,CA,1616140123
394,Guiratinga,-16.3494,-53.7583,68.74,98,100,2.48,BR,1616140396
395,Ketchikan,55.3422,-131.6461,37.62,98,100,2.89,US,1616140398
396,Lázaro Cárdenas,17.9583,-102.2,70.2,81,0,4.99,MX,1616140399
397,Priargunsk,50.3691,119.1012,24.19,83,24,2.91,RU,1616140401
398,Campoverde,-8.4753,-74.8058,71.71,98,97,1.79,PE,1616140403
399,Abonnema,4.7084,6.7931,73.4,94,75,8.05,NG,1616140405
400,Gulu,2.7746,32.299,77.4,66,81,4.88,UG,1616140406
401,Puerto Baquerizo Moreno,-0.9,-89.6,78.93,77,28,6.33,EC,1616140360
402,At-Bashi,41.1702,75.8106,33.71,58,0,0.29,KG,1616140410
403,Moussoro,13.6408,16.4901,95.14,11,11,10.54,TD,1616140411
404,Bethel,41.3712,-73.414,36.0,65,100,4.0,US,1616140413
405,Tura,25.5198,90.2201,92.59,15,99,6.35,IN,1616140414
406,Khandyga,62.6667,135.6,0.79,89,85,2.89,RU,1616140417
407,Teyateyaneng,-29.1472,27.7489,62.6,77,0,3.98,LS,1616140418
408,Marevo,57.3146,32.0804,27.48,85,100,6.24,RU,1616140419
409,Biak,-0.9131,122.8766,83.21,75,99,1.45,ID,1616140421
410,Clyde River,70.4692,-68.5914,-22.0,76,1,1.86,CA,1616140335
411,Ballina,-28.8667,153.5667,77.0,78,90,10.36,AU,1616140263
412,Røros,62.5747,11.3842,21.2,86,75,3.44,NO,1616140425
413,Rørvik,64.8621,11.2373,32.0,69,75,12.66,NO,1616140426
414,Lixouri,38.2019,20.4314,53.6,94,40,6.91,GR,1616140427
415,Blackwater,-23.5833,148.8833,78.55,75,96,10.0,AU,1616140429
416,Salalah,17.0151,54.0924,82.4,61,0,8.05,OM,1616140430
417,High Level,58.5169,-117.136,28.4,86,75,2.3,CA,1616140432
418,Nanortalik,60.1432,-45.2371,24.3,77,43,4.81,GL,1616140433
419,Gandajika,-6.75,23.95,80.38,69,15,2.8,CD,1616140434
420,Krasnosel'kup,65.7,82.4667,14.14,93,100,8.28,RU,1616140436
421,Havre-St-Pierre,50.2334,-63.5986,10.4,61,1,18.41,CA,1616140437
422,Osorno,-40.5667,-73.15,42.8,87,0,1.14,CL,1616140440
423,Padang,-0.9492,100.3543,86.0,66,20,9.22,ID,1616140441
424,Shubarshi,48.5872,57.1869,33.87,100,81,16.13,KZ,1616140443
425,Dyat'kovo,53.5978,34.3382,33.8,86,75,4.47,RU,1616140444
426,Campos Novos,-27.4017,-51.225,62.83,89,90,4.9,BR,1616140445
427,Price,39.5994,-110.8107,37.4,65,1,10.36,US,1616140448
428,Bāsār,27.9833,94.6667,87.8,37,20,4.61,IN,1616140449
429,Ust'-Ishim,57.6935,71.1665,31.91,80,100,10.92,RU,1616140452
430,Fortuna Foothills,32.6578,-114.4119,60.8,35,1,3.44,US,1616140453
431,Henties Bay,-22.116,14.2845,63.0,90,60,8.99,NA,1616140455
432,Wagga Wagga,-35.1167,147.3667,77.0,47,81,23.02,AU,1616140456
433,Port Said,31.2565,32.2841,64.4,59,0,4.61,EG,1616140457
434,Pasaje,-3.3333,-79.8167,74.88,95,100,1.66,EC,1616140459
435,Marzuq,14.4,46.4667,85.66,8,0,7.54,YE,1616140460
436,Bosaso,11.2842,49.1816,80.6,78,0,10.36,SO,1616140462
437,Gerāsh,27.6652,54.1371,87.8,15,0,8.79,IR,1616140463
438,Vitim,59.4511,112.5578,24.78,90,100,11.99,RU,1616140465
439,Lykhivka,48.6874,33.9228,38.08,66,19,7.65,UA,1616140466
440,Noumea,-22.2763,166.4572,78.8,69,20,1.14,NC,1616140468
441,Turaif,31.6725,38.6637,53.6,66,0,3.71,SA,1616140469
442,Lethem,3.3803,-59.7968,74.46,74,99,11.79,GY,1616140470
443,Shimoda,34.6667,138.95,60.8,67,75,10.36,JP,1616140472
444,Narrabri,-30.3167,149.7833,80.6,39,33,16.11,AU,1616140473
445,Taldan,53.6667,124.8,27.27,69,97,2.04,RU,1616140474
446,Yārāda,17.65,83.2667,95.0,31,100,10.36,IN,1616140476
447,Havelock,34.8791,-76.9013,62.01,93,0,3.0,US,1616140340
448,Yelizovo,53.1873,158.3805,39.2,56,75,8.95,RU,1616140478
449,Lagos,6.5833,3.75,73.4,94,20,3.44,NG,1616140326
450,Koungou,-12.7336,45.2042,87.8,74,0,4.61,YT,1616140481
451,Buraidah,26.326,43.975,73.4,35,0,8.05,SA,1616140336
452,Te Anau,-45.4167,167.7167,50.94,90,0,4.7,NZ,1616140484
453,Kerrobert,51.9168,-109.1348,41.0,70,1,10.36,CA,1616140485
454,Waingapu,-9.6567,120.2641,84.24,79,100,10.27,ID,1616140486
455,Boa Vista,2.8197,-60.6733,77.0,78,0,10.36,BR,1616140488
456,Barra de Tecoanapa,16.5167,-98.75,72.68,77,0,4.18,MX,1616140489
457,Guarapari,-20.6667,-40.4975,71.6,94,0,4.61,BR,1616140492
458,Mandera,3.9366,41.867,90.99,43,7,9.66,KE,1616140493
459,Noyabrsk,63.1994,75.4507,28.51,89,100,14.5,RU,1616140495
460,Kahului,20.8947,-156.47,68.0,73,1,11.5,US,1616140306
461,Cayenne,4.9333,-52.3333,78.01,94,90,7.18,GF,1616140498
462,Kailua,21.4022,-157.7394,69.8,73,90,18.41,US,1616140500
463,Huarmey,-10.0681,-78.1522,70.68,78,100,5.68,PE,1616140501
464,Dzilam González,21.2833,-88.9333,72.91,88,32,7.81,MX,1616140503
465,Lata,40.1629,-8.3327,48.99,62,5,1.01,PT,1616140505
466,Bratsk,56.1325,101.6142,23.0,58,40,15.66,RU,1616140506
467,La Unión,-5.4,-80.75,76.82,66,100,8.77,PE,1616140508
468,Rawson,-43.3002,-65.1023,64.11,43,1,17.13,AR,1616140291
469,Hailun,47.45,126.9333,38.1,43,3,3.6,CN,1616140510
470,Pouébo,-20.4,164.5667,77.02,84,100,13.27,NC,1616140512
471,Bose,45.4612,8.0137,43.0,71,100,3.0,IT,1616140513
472,Tūkrah,32.5341,20.5791,67.3,46,17,8.41,LY,1616140514
473,Salinópolis,-0.6136,-47.3561,76.87,86,90,5.1,BR,1616140516
474,Kabinda,-6.1333,24.4833,83.28,64,43,2.21,CD,1616140517
475,Tezu,27.9167,96.1667,96.46,14,93,4.79,IN,1616140519
476,Velasco Ibarra,-1.05,-79.6167,73.17,92,100,0.31,EC,1616140521
477,Martapura,-3.4167,114.85,93.2,55,40,3.44,ID,1616140523
478,Acajutla,13.5928,-89.8275,71.01,92,68,4.88,SV,1616140526
479,Saldanha,-33.0117,17.9442,66.2,72,0,17.27,ZA,1616140528
480,Alyangula,-13.8483,136.4192,82.33,79,100,15.61,AU,1616140529
481,Khāsh,28.2211,61.2158,82.51,12,0,12.12,IR,1616140531
482,Paramonga,-10.6667,-77.8333,70.23,79,100,4.85,PE,1616140532
483,Emerald,-23.5333,148.1667,86.0,54,90,11.5,AU,1616140533
485,Igrim,63.1906,64.4162,25.48,94,100,5.86,RU,1616140536
486,Kudahuvadhoo,2.6708,72.8944,83.28,70,29,7.54,MV,1616140538
487,Ixtapa,20.7,-105.2,64.99,85,0,2.04,MX,1616140539
488,Dukhovnitskoye,52.4828,48.2137,30.16,90,100,16.82,RU,1616140540
489,Grindavik,63.8424,-22.4338,44.6,100,90,23.02,IS,1616140542
490,Juneau,58.3019,-134.4197,33.01,86,75,3.44,US,1616140448
491,Udimskiy,61.1417,45.9144,20.48,94,98,5.82,RU,1616140544
492,Talnakh,69.4865,88.3972,-12.14,92,100,4.0,RU,1616140546
493,Chicama,-7.8447,-79.1469,71.87,74,100,5.39,PE,1616140547
494,Arlit,18.7369,7.3853,86.61,11,0,3.51,NE,1616140548
495,Dunedin,-45.8742,170.5036,55.99,77,43,8.99,NZ,1616140550
496,Portland,45.5234,-122.6762,46.0,87,53,1.01,US,1616140014
497,Makakilo City,21.3469,-158.0858,69.8,68,90,9.22,US,1616140268
498,Constitución,-35.3333,-72.4167,51.48,86,0,3.71,CL,1616140554
499,Hofn,64.2539,-15.2082,44.78,92,15,10.02,IS,1616140555
500,Bāglung,28.2719,83.5898,84.96,11,100,7.0,NP,1616140556
501,Goderich,43.7501,-81.7165,26.6,54,0,11.5,CA,1616140558
502,Palmer,42.1584,-72.3287,35.6,51,90,14.97,US,1616140559
503,Batagay,67.6333,134.6333,5.38,89,100,6.2,RU,1616140561
504,Kupang,-10.1667,123.5833,84.2,79,75,6.91,ID,1616140562
505,Sumbawanga,-7.9667,31.6167,71.6,60,20,4.61,TZ,1616140563
506,Kavaratti,10.5669,72.642,84.09,66,59,7.45,IN,1616140565
507,Bereda,43.2686,-7.5406,45.0,100,100,3.0,ES,1616140566
508,North Bend,43.4065,-124.2243,48.0,81,75,9.22,US,1616140568
509,Iracoubo,5.4802,-53.2011,75.29,83,91,8.01,GF,1616140570
510,Obo,5.3998,26.4869,88.77,46,41,3.4,CF,1616140572
511,Olinda,-8.0089,-34.8553,75.2,83,40,4.61,BR,1616140335
512,Lima,-12.0432,-77.0282,70.0,83,0,4.61,PE,1616140574
513,Prince Rupert,54.3161,-130.3201,42.8,81,40,8.05,CA,1616140475
514,Fort Morgan,40.2503,-103.8,28.4,86,1,2.24,US,1616140577
515,Orapa,-21.2833,25.3667,83.66,36,0,12.08,BW,1616140578
516,Changping,40.2186,116.2197,57.99,46,100,6.71,CN,1616140580
517,Yeppoon,-23.1333,150.7333,80.6,69,75,10.36,AU,1616140581
518,Aswān,24.0934,32.907,79.66,15,0,13.11,EG,1616140469
519,Huilong,31.8111,121.655,55.0,96,96,11.05,CN,1616140583
520,Guerrero Negro,27.9769,-114.0611,57.04,82,13,11.79,MX,1616140330
521,Bilma,18.6853,12.9164,91.15,12,1,7.61,NE,1616140586
522,Zaida,34.0603,72.4678,83.7,21,0,6.49,PK,1616140587
523,Teguise,29.0605,-13.564,62.6,72,20,10.36,ES,1616140589
524,Marawi,7.9986,124.2928,84.0,80,72,7.0,PH,1616140590
525,Kargasok,59.0556,80.8572,29.1,84,100,14.74,RU,1616140592
526,Taicheng,38.731,113.228,33.94,98,100,2.53,CN,1616140593
527,Muli,2.9167,73.5667,83.41,69,69,6.71,MV,1616140594
528,Aksay,47.26,39.87,39.2,93,40,6.71,RU,1616140596
529,Saint-Leu,-21.15,55.2833,86.0,70,20,26.46,RE,1616140597
530,Santa Maria,-29.6842,-53.8069,59.43,98,4,5.68,BR,1616140544
531,Nizhniy Kuranakh,58.8353,125.4869,23.92,83,100,6.96,RU,1616140600
532,Kisi,9.0833,3.85,79.97,68,79,5.66,NG,1616140601
533,Sur,22.5667,59.5289,91.85,29,0,7.83,OM,1616140366
534,Puerto Nariño,-3.7703,-70.3831,71.6,98,100,1.43,CO,1616140604
535,Adrar,20.5022,-10.0711,71.19,11,0,6.98,MR,1616140605
536,Edd,13.9297,41.6925,89.98,35,2,11.54,ER,1616140607
537,Harper,4.375,-7.7169,78.78,80,88,2.04,LR,1616140608
538,Makkah al Mukarramah,21.4267,39.8261,90.57,26,0,6.15,SA,1616140508
539,Kambove,-10.8764,26.5969,69.31,85,84,3.62,CD,1616140611
540,Oranjestad,12.524,-70.027,78.8,73,20,14.97,AW,1616140612
541,Kaeo,-35.1,173.7833,63.0,79,0,1.99,NZ,1616140614
542,Rio Grande,-32.035,-52.0986,64.76,74,72,4.88,BR,1616140615
543,Tame,6.461,-71.73,74.73,66,74,4.76,CO,1616140537
544,Utmanzai,34.188,71.7629,82.4,21,20,6.91,PK,1616140618
545,Pastos Bons,-6.6017,-44.0767,71.1,94,100,2.51,BR,1616140619
546,Poronaysk,49.2167,143.1167,25.97,76,100,13.18,RU,1616140620
547,Bykovo,55.6361,38.0803,32.0,80,75,11.18,RU,1616140622
548,Yangambi,0.8102,24.4336,90.25,44,3,1.03,CD,1616140623
549,Okha,53.5739,142.9478,18.93,79,0,11.99,RU,1616140625
550,Kilinochchi,9.3961,80.3982,87.48,54,57,11.56,LK,1616140352
551,Kajaani,64.2273,27.7285,6.8,78,0,3.44,FI,1616140627
552,Liwale,-9.7667,37.9333,79.09,84,99,3.15,TZ,1616140629
553,Manggar,-2.8833,108.2667,83.68,75,73,5.06,ID,1616140630
554,Santa Comba,43.0331,-8.8093,51.01,87,20,9.22,ES,1616140631
555,Pringsewu,-5.3582,104.9744,84.63,77,95,3.78,ID,1616140633
556,Poum,-20.2333,164.0167,79.75,78,100,16.82,NC,1616140634
557,Kushiro,42.975,144.3747,35.6,69,75,4.61,JP,1616140636
558,Lagan,45.3929,47.3707,43.12,79,100,13.35,RU,1616140637
559,Bandarbeyla,9.4942,50.8122,81.81,59,0,10.83,SO,1616140638
560,Iaçu,-12.7672,-40.2117,67.78,95,86,2.44,BR,1616140640
561,Jumla,29.2747,82.1838,64.29,21,85,7.87,NP,1616140641
562,Barras,-4.2444,-42.2944,72.46,97,79,2.21,BR,1616140585
563,Opuwo,-18.0607,13.84,73.89,59,89,9.51,NA,1616140644
564,Walvis Bay,-22.9575,14.5053,64.4,77,50,9.22,NA,1616140425
565,Muzhi,65.3667,64.6667,3.79,95,100,9.78,RU,1616140646
566,Esim,4.8699,-2.2405,80.46,74,100,4.12,GH,1616140648
567,Ryōtsu-minato,38.0833,138.4333,48.2,66,40,11.5,JP,1616140649
568,Muskegon,43.3,-86.1334,30.99,37,1,8.05,US,1616140651
569,Verkhoyansk,67.5447,133.385,15.8,78,100,13.22,RU,1616140445
570,Wad Medani,14.4012,33.5199,99.07,17,1,13.09,SD,1616140653
571,Daru,-9.0763,143.2092,82.38,80,100,6.73,PG,1616140654
572,Shingū,33.7333,135.9833,62.6,59,20,6.91,JP,1616140656
573,Vallenar,-28.5708,-70.7581,60.22,86,100,1.99,CL,1616140657
574,Mabay,6.0577,124.4666,93.2,46,40,9.22,PH,1616140659
575,Mehamn,71.0357,27.8492,23.0,86,100,25.32,NO,1616140586
576,Son La,21.3167,103.9,96.37,23,53,5.26,VN,1616140661
577,Port Blair,11.6667,92.75,88.79,52,0,5.93,IN,1616140663
578,Bonthe,7.5264,-12.505,76.64,78,15,4.88,SL,1616140664
579,Pandan,14.0453,124.1694,83.89,71,23,9.13,PH,1616140665
580,Bahía Blanca,-38.7196,-62.2724,54.12,51,0,8.01,AR,1616140667
581,São João Batista,-27.2761,-48.8494,68.0,98,29,2.37,BR,1616140668
582,Ende,-8.8432,121.6623,82.33,84,77,2.84,ID,1616140670
583,Wukari,7.85,9.7833,83.17,63,100,7.92,NG,1616140671
584,Sungai Penuh,-2.0833,101.3833,71.65,93,100,2.77,ID,1616140672
585,La Rinconada,37.4873,-5.9826,50.0,53,0,9.22,ES,1616140674
586,Moose Factory,51.2585,-80.6094,10.4,67,1,10.36,CA,1616140675
587,Porto Seguro,-16.4497,-39.0647,71.6,94,40,2.3,BR,1616140437
